Population;City_origin;Country_origin;Latitude_origin;Longitude_origin;departure_iataCode;iso_code;GDP;two_letter_code
142937.0;Aalborg;Denmark;57.0927589138;9.84924316406;AAL;DNK;355222449505.211;DK
336411;Aarhus;Denmark;56.2999992371;10.619000434899998;AAR;DNK;355222449505.211;DK
334757.0;Alicante;Spain;38.28219985961914;-0.5581560134887695;ALC;ESP;1276962685648.25;ES
506922;Antwerp;Belgium;51.1893997192;4.46027994156;ANR;BEL;525211810652.608;BE
1515017.0;Stockholm;Sweden;59.651901245117;17.918600082397;ARN;SWE;547054174235.876;SE
1620343.0;Barcelona;Spain;41.2971;2.07846;BCN;ESP;1276962685648.25;ES
341877.0;Belfast;United Kingdom;54.6575012207;-6.21582984924;BFS;GBR;2704609160088.15;GB
285911.0;Bergen;Norway;60.29339981;5.218140125;BGO;NOR;362198318435.26;NO
121200.0;Bergamo;Italy;45.673901;9.70417;BGY;ITA;1896755301518.14;IT
1141816.0;Birmingham;United Kingdom;52.4538993835;-1.7480299472799998;BHX;GBR;2704609160088.15;GB
345821.0;Bilbao;Spain;43.30110168457031;-2.9106099605560303;BIO;ESP;1276962685648.25;ES
6725.0;Billund;Denmark;55.7402992249;9.15178012848;BLL;DNK;355222449505.211;DK
394843.0;Bologna;Italy;44.5354;Nov.87;BLQ;ITA;1896755301518.14;IT
260958.0;Bordeaux;France;44.8283004761;-0.7155560255050001;BOD;FRA;2639008701648.26;FR
163600.0;Bournemouth;United Kingdom;50.77999877929688;-1.8424999713897705;BOH;GBR;2704609160088.15;GB
546501.0;Bremen;Germany;53.0475006104;8.78666973114;BRE;DEU;3889668895299.62;DE
617280.0;Bristol;United Kingdom;51.382702;-2.71909;BRS;GBR;2704609160088.15;GB
1019022.0;Brussels;Belgium;50.9014015198;4.48443984985;BRU;BEL;525211810652.608;BE
111430.0;Mulhouse;France;47.59;7.5291667;BSL;FRA;2639008701648.26;FR
1741041.0;Budapest;Hungary;47.42976;19.261093;BUD;HUN;157182045260.23;HU
53393.0;Beauvais;France;49.45439910888672;2.1127800941467285;BVA;FRA;2639008701648.26;FR
36436.0;Cascais;Portugal;38.724998;-9.35523;CAT;PRT;229031860520.777;PT
1086000;Cologne;Germany;50.8658981323;7.1427397728;CGN;DEU;3889668895299.62;DE
308000;Cluj-napoca;Romania;46.78519821166992;23.686199188232425;CLJ;ROU;251362040527.804;RO
1153615.0;Copenhagen;Denmark;55.617900848389;12.656000137329;CPH;DNK;355222449505.211;DK
200132.0;Charleroi;Belgium;50.459202000000005;4.45382;CRL;BEL;525211810652.608;BE
447287.0;Cardiff;United Kingdom;51.39670181274414;-3.343329906463623;CWL;GBR;2704609160088.15;GB
10381222.0;Moscow;Russia;55.40879821777344;37.90629959106445;DME;RUS;1489362488439.76;RU
894000;Doncaster, Sheffield;United Kingdom;53.4805378105;-1.01065635681;DSA;GBR;2704609160088.15;GB
1024027.0;Dublin;Ireland;53.421299;-6.27007;DUB;IRL;425852281928.121;IE
619294;Duesseldorf;Germany;51.289501;6.766780000000001;DUS;DEU;3889668895299.62;DE
506520.0;Edinburgh;United Kingdom;55.95000076293945;-3.372499942779541;EDI;GBR;2704609160088.15;GB
209620.0;Eindhoven;Netherlands;51.4500999451;5.374529838559999;EIN;NLD;909793466661.481;NL
1500000;East Midlands;United Kingdom;52.8311004639;-1.32806003094;EMA;GBR;2704609160088.15;GB
117763.0;Exeter;United Kingdom;50.73440170288086;-3.4138898849487305;EXT;GBR;2704609160088.15;GB
2318895.0;Rome;Italy;41.8002778;12.2388889;FCO;ITA;1896755301518.14;IT
346000;Karlsruhe/Baden-Baden;Germany;48.7793998718;8.08049964905;FKB;DEU;3889668895299.62;DE
41135.0;Memmingen;Germany;47.9888000488;10.2395000458;FMM;DEU;3889668895299.62;DE
753056;Frankfurt;Germany;50.033333;8.570556;FRA;DEU;3889668895299.62;DE
591620.0;Glasgow;United Kingdom;55.8718986511;-4.43306016922;GLA;GBR;2704609160088.15;GB
625000;Gothenborg;Sweden;57.662799835205;12.279800415039;GOT;SWE;547054174235.876;SE
627000;Geneva;Switzerland;46.23809814453125;6.108950138092041;GVA;CHE;739913619797.445;CH
1845229.0;Hamburg;Germany;53.630401611328;9.988229751586902;HAM;DEU;3889668895299.62;DE
558457.0;Helsinki;Finland;60.317199707031;24.963300704956;HEL;FIN;271891788362.647;FI
48684.0;Ibiza;Spain;38.8728981018;1.3731199502899998;IBZ;ESP;1276962685648.25;ES
14804116.0;Istanbul;Turkey;41.275278;28.751944;IST;TUR;720289368333.191;TR
800653;Krakow;Poland;50.077702;19.7848;KRK;POL;599449188399.108;PL
289380.0;Kaunas;Lithuania;54.96390151977539;24.084800720214844;KUN;LTU;56846622904.4391;LT
455123.0;Leeds;United Kingdom;53.86589813232422;-1.6605700254440308;LBA;GBR;2704609160088.15;GB
8961989.0;London;United Kingdom;51.505299;0.0552779999999999;LCY;GBR;2704609160088.15;GB
5536000;St. Petersburg;Russia;59.80030059814453;30.26250076293945;LED;RUS;1489362488439.76;RU
682000;Liege;Belgium;50.63740158081055;5.443220138549805;LGG;BEL;525211810652.608;BE
8961989.0;London;United Kingdom;51.148102;-0.190278;LGW;GBR;2704609160088.15;GB
8961989.0;London;United Kingdom;51.4706;-0.461941;LHR;GBR;2704609160088.15;GB
517802.0;Lisbon;Portugal;38.7813;-9.13592;LIS;PRT;229031860520.777;PT
864122.0;Liverpool;United Kingdom;53.33359909057617;-2.849720001220703;LPL;GBR;2704609160088.15;GB
8961989.0;London;United Kingdom;51.87469863891602;-0.3683330118656158;LTN;GBR;2704609160088.15;GB
647599;Luxemburg;Luxembourg;49.6233333;6.204444400000001;LUX;LUX;73992591285.3029;LU
522969.0;Lyon;France;45.725556;5.081111;LYS;FRA;2639008701648.26;FR
3255944.0;Madrid;Spain;40.471926;-3.56264;MAD;ESP;1276962685648.25;ES
93397;Menorca;Spain;39.86259841918945;4.2186498641967765;MAH;ESP;1276962685648.25;ES
395515.0;Manchester;United Kingdom;53.35369873046875;-2.2749500274658203;MAN;GBR;2704609160088.15;GB
86384.0;Melilla;Spain;35.279800415;-2.9562599659;MLN;ESP;1276962685648.25;ES
870731.0;Marseille;France;43.439271922;5.22142410278;MRS;FRA;2639008701648.26;FR
122378.0;Maastricht;Netherlands;50.911701;5.7701400000000005;MST;NLD;909793466661.481;NL
1260391.0;Munich;Germany;48.353802;Nov.61;MUC;DEU;3889668895299.62;DE
3149000;Milano;Italy;45.6306;8.728110000000001;MXP;ITA;1896755301518.14;IT
909048.0;Naples;Italy;40.886002000000005;14.2908;NAP;ITA;1896755301518.14;IT
7444.0;Newcastle;United Kingdom;55.03749847412109;-1.6916699409484863;NCL;GBR;2704609160088.15;GB
590000;Connaught;Ireland;53.9103012084961;-8.818490028381348;NOC;IRL;425852281928.121;IE
10131.0;Weeze;Germany;51.6024017334;6.14216995239;NRN;DEU;3889668895299.62;DE
249633.0;Porto;Portugal;41.2481002808;-8.68138980865;OPO;PRT;229031860520.777;PT
190384.0;Cork;Ireland;51.84130096435547;-8.491109848022461;ORK;IRL;425852281928.121;IE
2138551.0;Paris;France;48.7233333;2.3794444;ORY;FRA;2639008701648.26;FR
580000.0;Oslo;Norway;60.121;11.0502;OSL;NOR;362198318435.26;NO
69011.0;Ostend;Belgium;51.1988983154;2.8622200489;OST;BEL;525211810652.608;BE
1877155.0;Bucharest;Romania;44.5711111;26.085;OTP;ROU;251362040527.804;RO
78700;Aviles;Spain;43.5635986328125;-6.0346198081970215;OVD;ESP;1276962685648.25;ES
14750.0;Prestwick;United Kingdom;55.5093994140625;-4.586669921875;PIK;GBR;2704609160088.15;GB
950000;Palma de Mallorca;Spain;39.551700592;2.73881006241;PMI;ESP;1276962685648.25;ES
1165581.0;Prague;Czech Republic;50.1008;14.26;PRG;CZE;245974558654.043;CZ
109960.0;Pisa;Italy;43.683899;Oct.27;PSA;ITA;1896755301518.14;IT
742572.0;Riga;Latvia;56.92359924316406;23.971099853515625;RIX;LVA;34601740323.3386;LV
598199.0;Rotterdam;Netherlands;51.956902;4.43722;RTM;NLD;909793466661.481;NL
97800;Santiago;Spain;42.89630126953125;-8.415140151977539;SCQ;ESP;1276962685648.25;ES
172044.0;Santander;Spain;43.42710113525391;-3.82000994682312;SDR;ESP;1276962685648.25;ES
9729.0;Shannon;Ireland;52.702;-8.92482;SNN;IRL;425852281928.121;IE
8961989.0;London;United Kingdom;51.8849983215;0.234999999404;STN;GBR;2704609160088.15;GB
630305.0;Stuttgart;Germany;48.6898994446;9.22196006775;STR;DEU;3889668895299.62;DE
144877.0;Stavanger;Norway;58.876701354;5.637780189500001;SVG;NOR;362198318435.26;NO
10381222.0;Moscow;Russia;55.972599;37.4146;SVO;RUS;1489362488439.76;RU
684234.0;Sevilla;Spain;37.41799926757813;-5.8931097984313965;SVQ;ESP;1276962685648.25;ES
64345.0;Sandefjord;Norway;59.1866989136;10.258600235;TRF;NOR;362198318435.26;NO
1798000;Torino;Italy;45.200802;7.64963;TRN;ITA;1896755301518.14;IT
85760.0;Treviso;Italy;45.648399;Dec.44;TSF;ITA;1896755301518.14;IT
1691468.0;Vienna;Austria;48.110298156738;16.569700241089002;VIE;AUT;435225238000.437;AT
226490;Vitoria;Spain;42.8828010559082;-2.7244699001312256;VIT;ESP;1276962685648.25;ES
789744.0;Valencia;Spain;39.4893;-0.481625;VLC;ESP;1276962685648.25;ES
698966.0;Zagreb;Croatia;45.742900848400005;16.0687999725;ZAG;HRV;57472012426.6853;HR
1420000;Zurich;Switzerland;47.464699;8.54917;ZRH;CHE;739913619797.445;CH
196670.0;Aberdeen;United Kingdom;57.20190048217773;-2.1977798938751216;ABZ;GBR;2704609160088.15;GB
3056000;Izmir;Turkey;38.2924003601;27.156999588;ADB;TUR;720289368333.191;TR
67114;Alesund;Norway;62.5625;6.119699954986572;AES;NOR;362198318435.26;NO
19219.0;Akureyri;Iceland;65.66000366210939;-18.07270050048828;AEY;ISL;21694674809.9321;IS
592000;Malaga;Spain;36.67490005493164;-4.499110221862793;AGP;ESP;1276962685648.25;ES
592840.0;Kayseri;Turkey;38.770401001;35.4953994751;ASR;TUR;720289368333.191;TR
664046.0;Athens;Greece;37.9364013672;23.9444999695;ATH;GRC;188925995936.807;GR
758188.0;Antalya;Turkey;36.898701;30.800501;AYT;TUR;720289368333.191;TR
1273651.0;Belgrade;Serbia;44.8184013367;20.3090991974;BEG;SRB;53356480453.8048;RS
341877.0;Belfast;United Kingdom;54.61809921264648;-5.872499942779541;BHD;GBR;2704609160088.15;GB
202700;Bourgas;Bulgaria;42.56959915161133;27.515199661254886;BOJ;BGR;70240275010.1964;BG
316491.0;Bari;Italy;41.138901;16.760599;BRI;ITA;1896755301518.14;IT
311584.0;Catania;Italy;37.466801;15.0664;CTA;ITA;1896755301518.14;IT
556227.0;Dresden;Germany;51.1328010559082;13.767200469970703;DRS;DEU;3889668895299.62;DE
3517182.0;Ankara;Turkey;40.1281013489;32.995098114;ESB;TUR;720289368333.191;TR
41355.0;Faro;Portugal;37.0144004822;-7.965909957889999;FAO;PRT;229031860520.777;PT
367150.0;Florence;Italy;43.810001;Nov.51;FLR;ITA;1896755301518.14;IT
465000;Gdansk;Poland;54.37760162353516;18.46619987487793;GDN;POL;599449188399.108;PL
580097.0;Genoa;Italy;44.4133;Aug.75;GOA;ITA;1896755301518.14;IT
233218.0;Groningen;Netherlands;53.1197013855;6.579440116880001;GRQ;NLD;909793466661.481;NL
222326.0;Graz;Austria;46.9911003112793;15.439599990844728;GRZ;AUT;435225238000.437;AT
515140.0;Hannover;Germany;52.461101532;9.68507957458;HAJ;DEU;3889668895299.62;DE
211370;Heraklion;Greece;35.3396987915;25.1802997589;HER;GRC;188925995936.807;GR
1000;Humberside;United Kingdom;53.57440185546875;-0.350832998752594;HUY;GBR;2704609160088.15;GB
132493.0;Innsbruck;Austria;47.260201;11.344;INN;AUT;435225238000.437;AT
14804116.0;Istanbul;Turkey;40.976898;28.8146;ISL;TUR;720289368333.191;TR
3998.0;Ivalo;Finland;68.607299804688;27.405300140381;IVL;FIN;271891788362.647;FI
17400.0;Kuusamo;Finland;65.98760223388699;29.239400863647;KAO;FIN;271891788362.647;FI
3010000;Kiev;Ukraine;50.34500122070313;30.89469909667969;KBP;UKR;156617861448.576;UA
20298;Keflavik;Iceland;63.985000610352;-22.605600357056;KEF;ISL;21694674809.9321;IS
93205.0;Kristiansand;Norway;58.204201;8.08537;KRS;NOR;362198318435.26;NO
6500;Kittila;Finland;67.700996398926;24.846799850464;KTT;FIN;271891788362.647;FI
875530.0;Konya;Turkey;37.979;32.561901;KYA;TUR;720289368333.191;TR
72000.0;Larnaca;Cyprus;34.875099182128906;33.62490081787109;LCA;CYP;25008448886.3507;CY
504971.0;Leipzig;Germany;51.423889;12.236389;LEJ;DEU;3889668895299.62;DE
234475.0;Lille;France;50.563332;3.086886;LIL;FRA;2639008701648.26;FR
1371498.0;Milan;Italy;45.445099;9.27674;LIN;ITA;1896755301518.14;IT
272220.0;Ljubljana;Slovenia;46.223701;14.4576;LJU;SVN;53706800043.6842;SI
73406;Lulea;Sweden;65.543800354004;22.121999740601;LLA;SWE;547054174235.876;SE
165000;Linkoeping;Sweden;58.406200408900006;15.6805000305;LPI;SWE;547054174235.876;SE
533280;Malta;Malta;35.857498;14.4775;MLA;MLT;14933066818.9606;MT
393000;Teesside;United Kingdom;54.50920104980469;-1.4294099807739258;MME;GBR;2704609160088.15;GB
248252.0;Montpellier;France;43.57619857788086;3.96301007270813;MPL;FRA;2639008701648.26;FR
2200000;Minsk;Belarus;53.882499694824;28.030700683594;MSQ;BLR;61371126414.1663;BY
338620.0;Nice;France;43.658401489300005;7.215869903560001;NCE;FRA;2639008701648.26;FR
318808.0;Nantes;France;47.15319824220001;-1.61073005199;NTE;FRA;2639008701648.26;FR
512000;Nuernberg;Germany;49.498699;11.078056;NUE;DEU;3889668895299.62;DE
143135.0;Norwich;United Kingdom;52.675800323500006;1.28278005123;NWI;GBR;2704609160088.15;GB
60345.0;Olbia;Italy;40.898701;9.51763;OLB;ITA;1896755301518.14;IT
529500;Poznan;Poland;52.4210014343;16.8262996674;POZ;POL;599449188399.108;PL
220488.0;Rennes;France;48.0694999695;-1.73478996754;RNS;FRA;2639008701648.26;FR
14804116.0;Istanbul;Turkey;40.898601532;29.3092002869;SAW;TUR;720289368333.191;TR
71860;Skelleftea;Sweden;64.62480163574219;21.07690048217773;SFT;SWE;547054174235.876;SE
814000;Thessaloniki;Greece;40.51969909667969;22.97089958190918;SKG;GRC;188925995936.807;GR
1152556.0;Sofia;Bulgaria;42.69669342041016;23.411436080932614;SOF;BGR;70240275010.1964;BG
246201.0;Southampton;United Kingdom;50.95029830932617;-1.3567999601364136;SOU;GBR;2704609160088.15;GB
274845.0;Strasbourg;France;48.53829956054688;7.628230094909668;SXB;FRA;2639008701648.26;FR
153377.0;Salzburg;Austria;47.7933006287;13.0043001175;SZG;AUT;435225238000.437;AT
1049498.0;Tbilisi;Georgia;41.6692008972;44.95470047;TBS;GEO;15842922532.7202;GE
462000;Tallinn-ulemiste International;Estonia;59.41329956049999;24.8327999115;TLL;EST;31370395572.7658;EE
493465.0;Toulouse;France;43.629101;1.36382;TLS;FRA;2639008701648.26;FR
147139.0;Trondheim;Norway;63.45780179999999;10.9239998;TRD;NOR;362198318435.26;NO
258685.0;Venice;Italy;45.505299;Dec.19;VCE;ITA;1896755301518.14;IT
542366.0;Vilnius;Lithuania;54.634102;25.285801;VNO;LTU;56846622904.4391;LT
1168.0;Villafranca;Italy;45.395699;Oct.85;VRN;ITA;1896755301518.14;IT
1702139.0;Warsaw;Poland;52.1656990051;20.9671001434;WAW;POL;599449188399.108;PL
674320;Wroclaw;Poland;51.10269927979999;16.885799408;WRO;POL;599449188399.108;PL
6480;Altenrhein;Switzerland;47.4850006104;9.560770034789998;ACH;CHE;739913619797.445;CH
4680;Vagar;Faroe Islands;62.0635986328125;-7.277219772338867;FAE;FRO;3248696901.60652;FO
158552.0;Grenoble;France;45.36289978027344;5.329370021820068;GNB;FRA;2639008701648.26;FR
317000;Iasi;Romania;47.17850112915039;27.6205997467041;IAS;ROU;251362040527.804;RO
3010000;Kiev;Ukraine;50.40194;30.451940000000004;IEV;UKR;156617861448.576;UA
144700;Joenkoeping;Sweden;57.75759887695313;14.068699836730955;JKG;SWE;547054174235.876;SE
357400;Malmoe;Sweden;55.53630536399999;13.3761978149;MMX;SWE;547054174235.876;SE
8156.0;Laage;Germany;53.9182014465;12.2783002853;RLG;DEU;3889668895299.62;DE
423737.0;Bratislava;Slovakia;48.17020034790039;17.212699890136722;BTS;SVK;106696828625.55;SK
71000;Kalkmar;Sweden;56.68550109863281;16.287599563598633;KLR;SWE;547054174235.876;SE
2176.0;Karup;Denmark;56.29750061035156;9.124629974365234;KRP;DNK;355222449505.211;DK
18207.0;Palanga;Lithuania;55.97320175170898;21.093900680541992;PLQ;LTU;56846622904.4391;LT
14000;Ronne;Denmark;55.06330108642578;14.759599685668944;RNN;DNK;355222449505.211;DK
57606.0;Sundsvall;Sweden;62.528099060058594;17.443899154663086;SDL;SWE;547054174235.876;SE
27800;Soenderborg;Denmark;54.96440124511719;9.791729927062988;SGD;DNK;355222449505.211;DK
696731.0;Sarajevo;Bosnia and Herzegovina;43.82460021972656;18.331499099731445;SJJ;BIH;19950471170.6465;BA
474889.0;Skopje;Macedonia;41.961601;21.621401;SKP;MKD;12363580534.6811;MK
17746.0;Munster;Germany;52.134601593;7.68483018875;FMO;DEU;3889668895299.62;DE
317316.0;Katowice;Poland;50.4743;19.Aug;KTW;POL;599449188399.108;PL
176497;Saarbruecken;Germany;49.2145996094;7.10950994492;SCN;DEU;3889668895299.62;DE
52800;Bodo;Norway;67.26920318603516;14.365300178527832;BOO;NOR;362198318435.26;NO
299000;San Sebastian;Spain;43.35649871826172;-1.7906099557876587;EAS;ESP;1276962685648.25;ES
58403.0;Friedrichshafen;Germany;47.6712989807;9.511489868160002;FDH;DEU;3889668895299.62;DE
234325.0;Granada;Spain;37.18870162963867;-3.777359962463379;GRX;ESP;1276962685648.25;ES
61492.0;Karlstad;Sweden;59.4446983337;13.3374004364;KSD;SWE;547054174235.876;SE
121557.0;Kuopio;Finland;63.007099151611;27.797800064087;KUO;FIN;271891788362.647;FI
243400;La Coruna;Spain;43.302101;-8.37726;LCG;ESP;1276962685648.25;ES
204846.0;Linz;Austria;48.2332;14.1875;LNZ;AUT;435225238000.437;AT
31967.0;Molde;Norway;62.744701385498;7.262499809265099;MOL;NOR;362198318435.26;NO
128000;Norrkoeping;Sweden;58.58629989624024;16.250600814819336;NRK;SWE;547054174235.876;SE
209672.0;Pamplona;Spain;42.77000045776367;-1.6463299989700315;PNA;ESP;1276962685648.25;ES
195301.0;Turku;Finland;60.514099121094;22.262800216675;TKU;FIN;271891788362.647;FI
67631.0;Vaasa;Finland;63.050701141357;21.762199401855;VAA;FIN;271891788362.647;FI
297332.0;Vigo;Spain;42.2318000793457;-8.62677001953125;VGO;ESP;1276962685648.25;ES
675301.0;Zaragoza;Spain;41.66619873046875;-1.0415500402450562;ZAZ;ESP;1276962685648.25;ES
15094.0;Alta;Norway;69.976097106934;23.371700286865;ALF;NOR;362198318435.26;NO
2600;Bardufoss;Norway;69.055801391602;18.540399551392;BDU;NOR;362198318435.26;NO
1515017.0;Stockholm;Sweden;59.35440063476562;17.941699981689453;BMA;SWE;547054174235.876;SE
28000;Harstad/Narvik;Norway;68.491302490234;16.678100585938;EVE;NOR;362198318435.26;NO
8940;Floro;Norway;61.583599090576;5.0247201919556;FRO;NOR;362198318435.26;NO
40321.0;Haugesund;Norway;59.34529876709001;5.208360195159901;HAU;NOR;362198318435.26;NO
15000;Orsta-Volda;Norway;62.180000305176;6.074100017547599;HOV;NOR;362198318435.26;NO
3529.0;Kirkenes;Norway;69.725799560547;29.891300201416;KKN;NOR;362198318435.26;NO
24013.0;Kristiansund;Norway;63.111801147461;7.824520111083999;KSU;NOR;362198318435.26;NO
2283.0;Lakselv;Norway;70.068801879883;24.973499298096;LKL;NOR;362198318435.26;NO
5200;Orland;Norway;63.69889831542969;9.604000091552734;OLA;NOR;362198318435.26;NO
213200;Pristina;Serbia;42.5728;21.035801;PRN;SRB;53356480453.8048;RS
3800;Roros;Norway;62.57839965820301;11.342300415039;RRS;NOR;362198318435.26;NO
2447.0;Sandane;Norway;61.830001831055;6.1058301925659;SDN;NOR;362198318435.26;NO
6700.0;Sogndal;Norway;61.156101;7.13778;SOG;NOR;362198318435.26;NO
18100;Stord;Norway;59.79190063476562;5.340849876403809;SRP;NOR;362198318435.26;NO
77544;Tromso;Norway;69.68329620361328;18.91889953613281;TOS;NOR;362198318435.26;NO
89994.0;Ancona;Italy;43.616299;13.3623;AOI;ITA;1896755301518.14;IT
87141.0;Brindisi;Italy;40.6576;17.947001;BDS;ITA;1896755301518.14;IT
83000;Biarritz-bayonne;France;43.4683333;-1.5311111000000002;BIQ;FRA;2639008701648.26;FR
379466.0;Brno;Czech Republic;49.15129852294922;16.694400787353516;BRQ;CZE;245974558654.043;CZ
366452.0;Bydgoszcz;Poland;53.0968017578;17.9776992798;BZG;POL;599449188399.108;PL
149257.0;Cagliari;Italy;39.251499;9.05428;CAG;ITA;1896755301518.14;IT
49600.0;Carcassonne;France;43.21599960327149;2.3063199520111084;CCF;FRA;2639008701648.26;FR
2318895.0;Rome;Italy;41.7994;Dec.49;CIA;ITA;1896755301518.14;IT
588462.0;Dortmund;Germany;51.51829910279999;7.61223983765;DTM;DEU;3889668895299.62;DE
28317.0;Bergerac;France;44.82529830932617;0.5186110138893127;EGC;FRA;2639008701648.26;FR
103370;Gerona;Spain;41.901000977;2.7605500221;GRO;ESP;1276962685648.25;ES
40000;Kerry;Ireland;52.18090057373047;-9.52377986907959;KIR;IRL;425852281928.121;IE
635994.0;Chisinau;Moldova;46.92770004272461;28.93099975585937;KIV;MDA;11859730543.5525;MD
230000;Kosice;Slovakia;48.66310119628906;21.241100311279297;KSC;SVK;106696828625.55;SK
670640;Lodz;Poland;51.7219009399;19.3980998993;LCJ;POL;599449188399.108;PL
52106.0;Tarbes;France;43.1786994934082;-0.0064389999024569;LDE;FRA;2639008701648.26;FR
25800;Londonderry;United Kingdom;55.04280090332031;-7.161109924316406;LDY;GBR;2704609160088.15;GB
141176.0;Limoges;France;45.86280059814453;1.1794400215148926;LIG;FRA;2639008701648.26;FR
76810.0;La Rochelle;France;46.17919921875;-1.1952799558639526;LRH;FRA;2639008701648.26;FR
721000;Lvov;Ukraine;49.8125;23.95610046386719;LWO;UKR;156617861448.576;UA
20300;Newquai;United Kingdom;50.44060134887695;-4.995409965515137;NQY;GBR;2704609160088.15;GB
206614.0;Oradea;Romania;47.02529907226562;21.90250015258789;OMR;ROU;251362040527.804;RO
279791.0;Ostrava;Czech Republic;49.6963005065918;18.111099243164062;OSR;CZE;245974558654.043;CZ
35961.0;Paphos;Cyprus;34.71799850463867;32.48569869995117;PFO;CYP;25008448886.3507;CY
85960.0;Poitiers;France;46.58769989013672;0.3066659867763519;PIS;FRA;2639008701648.26;FR
648260.0;Palermo;Italy;38.175999;13.091;PMO;ITA;1896755301518.14;IT
119554.0;Pescara;Italy;42.431702;14.1811;PSR;ITA;1896755301518.14;IT
194775;Rzeszow;Poland;50.1100006104;22.0189990997;RZE;POL;599449188399.108;PL
70600;Lamezia;Italy;38.905399;16.2423;SUF;ITA;1896755301518.14;IT
10000;Szczytno-Szymany;Poland;53.481899;20.9377;SZY;POL;599449188399.108;PL
407811.0;Szczecin;Poland;53.584701538100006;14.9021997452;SZZ;POL;599449188399.108;PL
236852.0;Podgorica;Montenegro;42.359402;19.2519;TGD;MNE;4769860740.74074;ME
244315.0;Tampere;Finland;61.414100646973;23.604400634766;TMP;FIN;271891788362.647;FI
11800;Ronchi De Legionari;Italy;45.827499;13.4722;TRS;ITA;1896755301518.14;IT
141621.0;Tours;France;47.4322013855;0.727605998516;TUF;FRA;2639008701648.26;FR
142161.0;Paderborn;Germany;51.6141014099;8.616319656369999;PAD;DEU;3889668895299.62;DE
57431.0;Poprad;Slovakia;49.073600769;20.2411003113;TAT;SVK;106696828625.55;SK
677000;Hahn;Germany;49.9487;7.263889999999999;HHN;DEU;3889668895299.62;DE
103260;Jersey;Jersey;49.20790100097656;-2.195509910583496;JER;JEY;5841833610;JE
53600.0;Anapa;Russia;45.002101898193;37.347301483154;AAQ;RUS;1489362488439.76;RU
348780;Arkhangelsk;Russia;64.60030364990234;40.71670150756836;ARH;RUS;1489362488439.76;RU
533925.0;Astrakhan;Russia;46.2832984924;48.0063018799;ASF;RUS;1489362488439.76;RU
315738.0;Cherepovets;Russia;59.273601532;38.0158004761;CEE;RUS;1489362488439.76;RU
345289.0;Belgorod;Russia;50.643798828125;36.5900993347168;EGO;RUS;1489362488439.76;RU
106971.0;Elista;Russia;46.3739013671875;44.33089828491211;ESL;RUS;1489362488439.76;RU
1093485.0;Yerevan;Armenia;40.1473007202;44.3959007263;EVN;ARM;12641697523.2966;AM
1259013.0;Nizhniy Novgorod;Russia;56.23009872436499;43.784000396729;GOJ;RUS;1489362488439.76;RU
608722.0;Yaroslavl;Russia;57.56069946289063;40.15739822387695;IAR;RUS;1489362488439.76;RU
406113.0;Ivanovo;Russia;56.93939971923828;40.94079971313477;IWA;RUS;1489362488439.76;RU
340851.0;Kaluga;Russia;54.5499992371;36.3666687012;KLF;RUS;1489362488439.76;RU
899541.0;Krasnodar;Russia;45.034698486328;39.170501708984;KRR;RUS;1489362488439.76;RU
507155.0;Kirov;Russia;58.50329971313501;49.348300933838;KVX;RUS;1489362488439.76;RU
39319.0;Kirov;Russia;58.50329971313501;49.348300933838;KVX;RUS;1489362488439.76;RU
1243500.0;Kazan;Russia;55.606201171875;49.278701782227;KZN;RUS;1489362488439.76;RU
596356.0;Makhachkala;Russia;42.81679916381836;47.65230178833008;MCX;RUS;1489362488439.76;RU
295374.0;Murmansk;Russia;68.78170013427734;32.75080108642578;MMK;RUS;1489362488439.76;RU
76280.0;Mineralnye Vody;Russia;44.22510147094727;43.08190155029297;MRV;RUS;1489362488439.76;RU
35604.0;Beslan;Russia;43.2051010132;44.606601715100005;OGZ;RUS;1489362488439.76;RU
523553.0;Penza;Russia;53.11059951782226;45.02109909057617;PEZ;RUS;1489362488439.76;RU
210501.0;Pskov;Russia;57.78390121459961;28.39559936523437;PKV;RUS;1489362488439.76;RU
31039.0;Rostov;Russia;47.493888;39.924722;ROV;RUS;1489362488439.76;RU
336460.0;Simferopol;Ukraine;45.05220031738281;33.975101470947266;SIP;UKR;156617861448.576;UA
318841.0;Saransk;Russia;54.12512969970703;45.21225738525391;SKX;RUS;1489362488439.76;RU
626540.0;Ulyanovsk;Russia;54.26829910279999;48.226699829100006;ULV;RUS;1489362488439.76;RU
10381222.0;Moscow;Russia;55.5914993286;37.2615013123;VKO;RUS;1489362488439.76;RU
1013533.0;Volgograd;Russia;48.78250122070313;44.34550094604492;VOG;RUS;1489362488439.76;RU
1047549.0;Voronezh;Russia;51.81420135498047;39.22959899902344;VOZ;RUS;1489362488439.76;RU
327608.0;Sochi;Russia;43.449902;39.9566;AER;RUS;1489362488439.76;RU
475056.0;Kaliningrad;Russia;54.88999938964844;20.59259986877441;KGD;RUS;1489362488439.76;RU
61186.0;Apatity;Russia;67.46330261230469;33.58829879760742;KVK;RUS;1489362488439.76;RU
509735.0;Lipetsk;Russia;52.70280075073242;39.53779983520508;LPK;RUS;1489362488439.76;RU
148381.0;Gyumri;Armenia;40.7504005432;43.859298706100006;LWN;ARM;12641697523.2966;AM
453387;Stavropol;Russia;45.10919952392578;42.11280059814453;STW;RUS;1489362488439.76;RU
312770.0;Varna;Bulgaria;43.232101;27.8251;VAR;BGR;70240275010.1964;BG
492331.0;Cheboksary;Russia;56.09030151367188;47.3473014831543;CSY;RUS;1489362488439.76;RU
239300.0;Nalchik;Russia;43.51290130615234;43.63660049438477;NAL;RUS;1489362488439.76;RU
114530;Ramenskoe;Russia;55.553299;38.150002;ZIA;RUS;1489362488439.76;RU
23240.0;Ängelholm;Sweden;56.29610061645508;12.847100257873535;AGH;SWE;547054174235.876;SE
202402.0;Debrecen;Hungary;47.48889923095703;21.61529922485352;DEB;HUN;157182045260.23;HU
112969.0;Alanya;Turkey;36.299217;32.300598;GZP;TUR;720289368333.191;TR
8771.0;Magas;Russia;43.3222999573;45.0125999451;IGT;RUS;1489362488439.76;RU
244083.0;Trabzon;Turkey;40.99509811401367;39.78969955444336;TZX;TUR;720289368333.191;TR
213692.0;Erfurt;Germany;50.97980117797852;10.958100318908691;ERF;DEU;3889668895299.62;DE
41000;Guernsey;Guernsey;49.43500137329102;-2.601969957351685;GCI;GGY;3465000000;GG
80000;Isle Of Man;Isle of Man;54.08330154418945;-4.623889923095703;IOM;IMN;7315000;IM
49806.0;Östersund;Sweden;63.194400787354;14.500300407410002;OSD;SWE;547054174235.876;SE
21600;Borlange;Sweden;60.42200088500977;15.515199661254885;BLE;SWE;547054174235.876;SE
119635;Orebro;Sweden;59.22370147705078;15.038000106811523;ORB;SWE;547054174235.876;SE
130225;Umea;Sweden;63.791801452637;20.282800674438;UME;SWE;547054174235.876;SE
34261.0;Alghero;Italy;40.632099;8.29077;AHO;ITA;1896755301518.14;IT
26298.0;Comiso;Italy;36.994601;14.607182;CIY;ITA;1896755301518.14;IT
178338.0;Kutaisi;Georgia;42.176700592;42.4826011658;KUT;GEO;15842922532.7202;GE
418495.0;Tirana;Albania;41.4146995544;19.7206001282;TIA;ALB;15131866270.5936;AL
64194.0;Rovaniemi;Finland;66.564796447754;25.830400466919;RVN;FIN;271891788362.647;FI
47790.0;Inverness;United Kingdom;57.54249954223633;-4.047500133514403;INV;GBR;2704609160088.15;GB
26544.0;Gibraltar;Gibraltar;36.1511993408;-5.3496599197400005;GIB;GIB;;GI
144000;Bacau;Romania;46.52190017700195;26.91029930114746;BCM;ROU;251362040527.804;RO
2000;Dongloe;Ireland;55.0442008972168;-8.340999603271483;CFN;IRL;425852281928.121;IE
360044.0;Lublin;Poland;51.240278;22.713611;LUZ;POL;599449188399.108;PL
151894.0;Sibiu;Romania;45.78559875488281;24.09129905700684;SBZ;ROU;251362040527.804;RO
1219.0;Benbecula;United Kingdom;57.48109817504883;-7.362780094146728;BEB;GBR;2704609160088.15;GB
1078.0;Barra;United Kingdom;57.0228;-7.443060000000001;BRR;GBR;2704609160088.15;GB
4800.0;Campbeltown;United Kingdom;55.43719863891602;-5.686389923095702;CAL;GBR;2704609160088.15;GB
3200;Islay;United Kingdom;55.68190002441406;-6.256669998168945;ILY;GBR;2704609160088.15;GB
7150.0;Kirkwall;United Kingdom;58.957801818847656;-2.9049999713897705;KOI;GBR;2704609160088.15;GB
22920;Sumburgh;United Kingdom;59.87889862060547;-1.295560002326965;LSI;GBR;2704609160088.15;GB
7500.0;Stornoway;United Kingdom;58.215599060058594;-6.3311100006103525;SYY;GBR;2704609160088.15;GB
600;Tiree;United Kingdom;56.49919891357422;-6.869170188903809;TRE;GBR;2704609160088.15;GB
63000.0;Lugano;Switzerland;46.00429916379999;8.9105796814;LUG;CHE;739913619797.445;CH
5400;Santa Maria (island);Portugal;36.97140121459961;-25.17060089111328;SMA;PRT;229031860520.777;PT
26500;Sanday;United Kingdom;59.25030136108398;-2.576669931411743;NDY;GBR;2704609160088.15;GB
100;North Ronaldsay;United Kingdom;59.3675003052;-2.43443989754;NRL;GBR;2704609160088.15;GB
100;Papa Westray;United Kingdom;59.351699829100006;-2.9002799987800003;PPW;GBR;2704609160088.15;GB
1500;Stronsay;United Kingdom;59.1553001404;-2.6413900852200003;SOY;GBR;2704609160088.15;GB
600;Westray;United Kingdom;59.350299835200005;-2.95000004768;WRY;GBR;2704609160088.15;GB
196850;Almeria;Spain;36.84389877319336;-2.3701000213623047;LEI;ESP;1276962685648.25;ES
105796.0;Suceava;Romania;47.6875;26.35409927368164;SCV;ROU;251362040527.804;RO
307000;Timisoara;Romania;45.80989837646485;21.337900161743164;TSR;ROU;251362040527.804;RO
71698.0;Esbjerg;Denmark;55.525902;Aug.34;EBJ;DNK;355222449505.211;DK
64603.0;Crotone;Italy;38.9972;17.0802;CRV;ITA;1896755301518.14;IT
307960.0;Mannheim;Germany;49.473057;8.514167;MHG;DEU;3889668895299.62;DE
993120;Odessa;Ukraine;46.42679977416992;30.67650032043457;ODS;UKR;156617861448.576;UA
120137.0;Perugia;Italy;43.095901;Dec.32;PEG;ITA;1896755301518.14;IT
67531.0;Trapani;Italy;37.9114;12.488;TPS;ITA;1896755301518.14;IT
185980;Nis;Serbia;43.337299;21.853701;INI;SRB;53356480453.8048;RS
287530;Klagenfurt;Austria;46.642502;14.3377;KLU;AUT;435225238000.437;AT
1248988.0;Adana;Turkey;36.9822006226;35.2803993225;ADA;TUR;720289368333.191;TR
1700000;Diyabakir;Turkey;37.893901825;40.2010002136;DIY;TUR;720289368333.191;TR
200452.0;Nicosia;Cyprus;35.15470123291016;33.49610137939453;ECN;CYP;25008448886.3507;CY
420691.0;Erzurum;Turkey;39.9565010071;41.17020034789999;ERZ;TUR;720289368333.191;TR
1065975.0;Gaziantep;Turkey;36.9472007751;37.4786987305;GZT;TUR;720289368333.191;TR
1600000;Hatay;Turkey;36.36277771;36.282222747800006;HTY;TUR;720289368333.191;TR
77486.0;Kars;Turkey;40.562198638916016;43.1150016784668;KSY;TUR;720289368333.191;TR
441805.0;Malatya;Turkey;38.4352989197;38.0909996033;MLX;TUR;720289368333.191;TR
71373.0;Mardin;Turkey;37.2233009338;40.6316986084;MQM;TUR;720289368333.191;TR
700000;Ordu-Giresun;Turkey;40.966047;38.080994;OGU;TUR;720289368333.191;TR
394050.0;Samsun;Turkey;41.254501;36.567101;SZF;TUR;720289368333.191;TR
371713.0;Van;Turkey;38.46820068359375;43.332298278808594;VAN;TUR;720289368333.191;TR
138100;Jyvaskyla;Finland;62.399501800537;25.678300857544;JYV;FIN;271891788362.647;FI
12500.0;Westerland;Germany;54.9132003784;8.34047031403;GWT;DEU;3889668895299.62;DE
161312.0;Split;Croatia;43.53889846801758;16.29800033569336;SPU;HRV;57472012426.6853;HR
212900;Jerez;Spain;36.74459838867188;-6.060110092163086;XRY;ESP;1276962685648.25;ES
625000;Adiyaman;Turkey;37.7313995361;38.4688987732;ADF;TUR;720289368333.191;TR
539000;Agri;Turkey;39.654541015625;43.025978088378906;AJI;TUR;720289368333.191;TR
381990.0;Batman;Turkey;37.9290008545;41.1166000366;BAL;TUR;720289368333.191;TR
39317.0;Bodrum;Turkey;37.25059890749999;27.6643009186;BJV;TUR;720289368333.191;TR
19292.0;Dalaman;Turkey;36.7131004333;28.7924995422;DLM;TUR;720289368333.191;TR
114027.0;Erzincan;Turkey;39.7102012634;39.5270004272;ERC;TUR;720289368333.191;TR
595630;Elazig;Turkey;38.6068992615;39.2914009094;EZS;TUR;720289368333.191;TR
2000000;Sanliurfa;Turkey;37.445663;38.895592;GNY;TUR;720289368333.191;TR
197500;Igdir;Turkey;39.9766273499;43.8766479492;IGD;TUR;720289368333.191;TR
1145000;Kahramanmaras;Turkey;37.5388259888;36.9535217285;KCM;TUR;720289368333.191;TR
407900;Mus;Turkey;38.74779891967773;41.66120147705078;MSR;TUR;720289368333.191;TR
80992.0;Cizre;Turkey;37.3647;42.0582;NKT;TUR;720289368333.191;TR
286470;Hakkari;Turkey;37.5497;44.2381;YKO;TUR;720289368333.191;TR
4655.0;Arvidsjaur;Sweden;65.59030151367189;19.28190040588379;AJR;SWE;547054174235.876;SE
43730;Chateauroux;France;46.860278;1.721111;CHR;FRA;2639008701648.26;FR
123914.0;Metz;France;48.9821014404;6.25131988525;ETZ;FRA;2639008701648.26;FR
71258.0;Zadar;Croatia;44.108299;15.3467;ZAD;HRV;57472012426.6853;HR
313238.0;Denizli;Turkey;37.7855987549;29.7012996674;DNZ;TUR;720289368333.191;TR
121806.0;Batumi;Georgia;41.6102981567;41.5997009277;BUS;GEO;15842922532.7202;GE
28428.0;Dubrovnik;Croatia;42.5614013671875;18.268199920654297;DBV;HRV;57472012426.6853;HR
1419000;Kharkov;Ukraine;49.92480087280274;36.290000915527344;HRK;UKR;156617861448.576;UA
172334.0;Isparta;Turkey;37.8554000854;30.3684005737;ISE;TUR;720289368333.191;TR
70402.0;Kastamonu;Turkey;41.31420135498047;33.79579925537109;KFS;TUR;720289368333.191;TR
50658.0;Merzifon;Turkey;40.829399;35.521999;MZH;TUR;720289368333.191;TR
298400;Nevsehir;Turkey;38.7719;34.5345;NAV;TUR;720289368333.191;TR
34834.0;Sinop;Turkey;42.015800476074;35.066398620605;NOP;TUR;720289368333.191;TR
746749;Zaporozhye;Ukraine;47.86700057983398;35.31570053100586;OZH;UKR;156617861448.576;UA
6280.0;Tivat;Montenegro;42.40470123291016;18.72330093383789;TIV;MNE;4769860740.74074;ME
264022.0;Sivas;Turkey;39.813801;36.9035;VAS;TUR;720289368333.191;TR
34724.0;Aurillac;France;44.89139938354492;2.4219400882720947;AUR;FRA;2639008701648.26;FR
58112.0;Lorient;France;47.76060104370117;-3.440000057220459;LRT;FRA;2639008701648.26;FR
56500;Hyeres;France;43.0973014832;6.14602994919;TLN;FRA;2639008701648.26;FR
299265.0;Valladolid;Spain;41.7061004639;-4.85194015503;VLL;ESP;1276962685648.25;ES
17037.0;Kiruna;Sweden;67.821998596191;20.336799621582;KRN;SWE;547054174235.876;SE
52200;Yenisehir;Turkey;40.2551994324;29.5625991821;YEI;TUR;720289368333.191;TR
54364.0;Ajaccio;France;41.92359924316406;8.8029203414917;AJA;FRA;2639008701648.26;FR
1200000;Null;Bosnia and Herzegovina;44.45869827270508;18.72480010986328;TZL;BIH;19950471170.6465;BA
144899.0;Brest;France;48.4478988647461;-4.418540000915527;BES;FRA;2639008701648.26;FR
147865.0;Clermont-Ferrand;France;45.7867012024;3.1691699028;CFE;FRA;2639008701648.26;FR
110624.0;Caen;France;49.173301696777344;-0.449999988079071;CFR;FRA;2639008701648.26;FR
82697.0;Pau;France;43.38000106811523;-0.4186109900474548;PUF;FRA;2639008701648.26;FR
183453;Southend;United Kingdom;51.5713996887207;0.6955559849739075;SEN;GBR;2704609160088.15;GB
1515017.0;Stockholm;Sweden;58.78860092163086;16.912200927734375;NYO;SWE;547054174235.876;SE
5045;Bronnoysund;Norway;65.461097717285;12.217499732971;BNN;NOR;362198318435.26;NO
9800;Mosjoen;Norway;65.78399658203101;13.214900016785;MJF;NOR;362198318435.26;NO
18866.0;Mo i Rana;Norway;66.363899230957;14.301400184631;MQN;NOR;362198318435.26;NO
8413.0;Namsos;Norway;64.472198486328;11.57859992981;OSY;NOR;362198318435.26;NO
2615.0;Rørvik;Norway;64.838302612305;11.14610004425;RVK;NOR;362198318435.26;NO
60443;Sandnessjoen;Norway;65.95680236816399;12.468899726868;SSJ;NOR;362198318435.26;NO
1500;Neerlerit Inaat;Greenland;70.7431030273;-22.6504993439;CNP;GRL;3076015346.7541;GL
2500;Egilsstadir;Iceland;65.28330230712889;-14.401399612426758;EGS;ISL;21694674809.9321;IS
2700;Isafjordur;Iceland;66.05809783935547;-23.13529968261719;IFJ;ISL;21694674809.9321;IS
70480.0;Halmstad;Sweden;56.69110107421875;12.820199966430664;HAD;SWE;547054174235.876;SE
200;Hemavan;Sweden;65.80609893798828;15.082799911499023;HMV;SWE;547054174235.876;SE
39762.0;Kristianstad;Sweden;55.92169952392578;14.08549976348877;KID;SWE;547054174235.876;SE
6582.0;Kramfors;Sweden;63.04859924316406;17.76889991760254;KRF;SWE;547054174235.876;SE
8545.0;Lycksele;Sweden;64.54830169677734;18.71619987487793;LYC;SWE;547054174235.876;SE
11620;Mariehamn;Finland;60.122200012207;19.898199081421;MHQ;FIN;271891788362.647;FI
32953;Ornskoldsvik;Sweden;63.40829849243164;18.989999771118164;OER;SWE;547054174235.876;SE
12612.0;Ronneby;Sweden;56.266700744629;15.265000343323;RNB;SWE;547054174235.876;SE
59050;Trollhattan;Sweden;58.31809997558594;12.345000267028809;THN;SWE;547054174235.876;SE
23402.0;Visby;Sweden;57.662799835205;18.346200942993;VBY;SWE;547054174235.876;SE
66275;Vaxjo;Sweden;56.92910003662109;14.727999687194824;VXO;SWE;547054174235.876;SE
2032.0;Pajala;Sweden;67.24559783935547;23.06889915466309;PJA;SWE;547054174235.876;SE
148334.0;Badajoz;Spain;38.891300201416016;-6.8213300704956055;BJZ;ESP;1276962685648.25;ES
150672;Nimes;France;43.75740051269531;4.4163498878479;FNI;FRA;2639008701648.26;FR
124770;Leon;Spain;42.5890007019043;-5.65556001663208;LEN;ESP;1276962685648.25;ES
28337.0;Rodez;France;44.407901763916016;2.4826700687408447;RDZ;FRA;2639008701648.26;FR
112490.0;Satu Mare;Romania;47.70330047607422;22.88570022583008;SUJ;ROU;251362040527.804;RO
4091.0;Satu Mare;Romania;47.70330047607422;22.88570022583008;SUJ;ROU;251362040527.804;RO
102441;Satu Mare;Romania;47.70330047607422;22.88570022583008;SUJ;ROU;251362040527.804;RO
2017.0;Satu Mare;Romania;47.70330047607422;22.88570022583008;SUJ;ROU;251362040527.804;RO
26364.0;Viseu;Portugal;40.725498;-7.88899;VSE;PRT;229031860520.777;PT
55980.0;Cuneo;Italy;44.547001;7.62322;CUF;ITA;1896755301518.14;IT
110706.0;Perpignan;France;42.74039840698242;2.8706700801849365;PGF;FRA;2639008701648.26;FR
7260;ST MARY\'S;United Kingdom;49.91329956054688;-6.291669845581055;ISC;GBR;2704609160088.15;GB
182455.0;Reggio Calabria;Italy;38.071201;15.6516;REG;ITA;1896755301518.14;IT
25878.0;Dole;France;47.042686;5.435063;DLE;FRA;2639008701648.26;FR
77266.0;Joensuu;Finland;62.662899017334006;29.607500076294;JOE;FIN;271891788362.647;FI
36498.0;Kajaani;Finland;64.285499572754;27.692399978638;KAJ;FIN;271891788362.647;FI
22641.0;Kemi;Finland;65.778701782227;24.582099914551;KEM;FIN;271891788362.647;FI
6450;Kruunupyy;Finland;63.721199035645;23.143100738525;KOK;FIN;271891788362.647;FI
209648.0;Oulu;Finland;64.930099487305;25.354600906372;OUL;FIN;271891788362.647;FI
41001.0;Bastia;France;42.55270004272461;9.48373031616211;BIA;FRA;2639008701648.26;FR
5477.0;Calvi;France;42.52444439999999;8.793055599999999;CLY;FRA;2639008701648.26;FR
1438.0;Figari;France;41.5005989074707;9.097780227661133;FSC;FRA;2639008701648.26;FR
47400;Brive;France;45.039722;1.485556;BVE;FRA;2639008701648.26;FR
47275.0;Castres;France;43.55630111694336;2.289180040359497;DCM;FRA;2639008701648.26;FR
18900;Le Puy;France;45.0806999206543;3.7628901004791264;LPY;FRA;2639008701648.26;FR
63849.0;Quimper;France;47.97499847412109;-4.167789936065674;UIP;FRA;2639008701648.26;FR
56371;Kavala;Greece;40.91329956054688;24.619199752807614;KVA;GRC;188925995936.807;GR
96848.0;Osijek;Croatia;45.46269989013672;18.810199737548828;OSI;HRV;57472012426.6853;HR
968502;Dnepropetrovsk;Ukraine;48.357200622558594;35.100601196289055;DNK;UKR;156617861448.576;UA
67940;St.-nazaire;France;47.3105556;-2.1566667;SNR;FRA;2639008701648.26;FR
238196.0;Ivano-Frankivsk;Ukraine;48.88420104980469;24.68610000610352;IFO;UKR;156617861448.576;UA
948;Berlevag;Norway;70.871399;29.034201;BVG;NOR;362198318435.26;NO
365;Hasvik;Norway;70.486701965332;22.139699935913;HAA;NOR;362198318435.26;NO
2480;Honningsvag;Norway;71.009696960449;25.983600616455004;HVG;NOR;362198318435.26;NO
860;Sorkjosen;Norway;69.786796569824;20.959400177002;SOJ;NOR;362198318435.26;NO
1875.0;Vardø;Norway;70.355400085449;31.044900894165;VAW;NOR;362198318435.26;NO
5064.0;Vadsø;Norway;70.065299987793;29.844699859619;VDS;NOR;362198318435.26;NO
4990;Andoya;Norway;69.292503356934;16.144199371338;ANX;NOR;362198318435.26;NO
11448.0;Hammerfest;Norway;70.67970275878899;23.668600082397;HFT;NOR;362198318435.26;NO
3367.0;Stokmarknes;Norway;68.578826904297;15.033416748047;SKN;NOR;362198318435.26;NO
2210;Batsfjord;Norway;70.60050201416;29.691400527954;BJF;NOR;362198318435.26;NO
779.0;Mehamn;Norway;71.02970123291;27.826700210571;MEH;NOR;362198318435.26;NO
3556.0;Leknes;Norway;68.152496337891;13.609399795532;LKN;NOR;362198318435.26;NO
0.0;Leknes;Norway;68.152496337891;13.609399795532;LKN;NOR;362198318435.26;NO
0.0;Røst;Norway;67.527801513672;12.103300094604002;RET;NOR;362198318435.26;NO
4720.0;Svolvær;Norway;68.243301391602;14.669199943542;SVJ;NOR;362198318435.26;NO
4065.0;Lampedusa;Italy;35.497898;Dec.81;LMP;ITA;1896755301518.14;IT
8449;Gallivare;Sweden;67.13240051269531;20.814599990844727;GEV;SWE;547054174235.876;SE
57812;Alexandroupolis;Greece;40.855899810791016;25.95630073547364;AXD;GRC;188925995936.807;GR
100000;Kerkyra/corfu;Greece;39.601898193359375;19.911699295043945;CFU;GRC;188925995936.807;GR
108640;Chania;Greece;35.531700134277344;24.14970016479492;CHQ;GRC;188925995936.807;GR
35800;Keffallinia;Greece;38.12009811401367;20.5004997253418;EFL;GRC;188925995936.807;GR
65600;Ioannina;Greece;39.6963996887207;20.82250022888184;IOA;GRC;188925995936.807;GR
8423;Ikaria;Greece;37.6827011108;26.3470993042;JIK;GRC;188925995936.807;GR
23953.0;Chios;Greece;38.34320068359375;26.14060020446777;JKH;GRC;188925995936.807;GR
12300;Kalymnos;Greece;36.9632987976;26.9405994415;JKL;GRC;188925995936.807;GR
3783.0;Mykonos;Greece;37.43510055541992;25.348100662231445;JMK;GRC;188925995936.807;GR
8707.0;Sitia;Greece;35.21609878540039;26.101299285888672;JSH;GRC;188925995936.807;GR
21500;Syros Island;Greece;37.4227981567;24.9508991241;JSY;GRC;188925995936.807;GR
15500;Thira;Greece;36.39920043945313;25.47929954528809;JTR;GRC;188925995936.807;GR
19244.0;Kos;Greece;36.79330062866211;27.09169960021973;KGS;GRC;188925995936.807;GR
3354;Kithira;Greece;36.2742996216;23.0170001984;KIT;GRC;188925995936.807;GR
17262;Limnos;Greece;39.917098999;25.236299514799995;LXS;GRC;188925995936.807;GR
114880;Mytilini;Greece;39.0567016602;26.5983009338;MJT;GRC;188925995936.807;GR
4900;Milos;Greece;36.696899;24.4769;MLO;GRC;188925995936.807;GR
19000;Preveza;Greece;38.92549896240234;20.765300750732425;PVK;GRC;188925995936.807;GR
124850;Rhodos;Greece;36.40539932250977;28.086200714111328;RHO;GRC;188925995936.807;GR
2994;Skiros;Greece;38.9676017761;24.4871997833;SKU;GRC;188925995936.807;GR
1885.0;Samos;Greece;37.68999862670898;26.911699295043945;SMI;GRC;188925995936.807;GR
11541.0;Zakynthos;Greece;37.7509;20.8843;ZTH;GRC;188925995936.807;GR
3572.0;Vilhelmina;Sweden;64.5791015625;16.833599090576172;VHM;SWE;547054174235.876;SE
3455.0;Pantelleria;Italy;36.816502;Nov.89;PNL;ITA;1896755301518.14;IT
475;Colonsay;United Kingdom;56.05749893189999;-6.243060112;CSA;GBR;2704609160088.15;GB
250;North Connel;United Kingdom;56.4635009765625;-5.399670124053955;OBN;GBR;2704609160088.15;GB
17001.0;Vila Real;Portugal;41.2743;-7.72047;VRL;PRT;229031860520.777;PT
122853;Reykjavik;Iceland;64.1299972534;-21.9405994415;RKV;ISL;21694674809.9321;IS
108622.0;Rijeka;Croatia;45.21689987182617;14.570300102233888;RJK;HRV;57472012426.6853;HR
262968;Land's End;United Kingdom;50.102798;-5.67056;LEQ;GBR;2704609160088.15;GB
65;Fair Isle;United Kingdom;59.53580093383789;-1.628059983253479;FIE;GBR;2704609160088.15;GB
7040.0;Lerwick;United Kingdom;60.192199707;-1.24361002445;LWK;GBR;2704609160088.15;GB
741636.0;Amsterdam;Netherlands;52.308601;4.76389;AMS;NLD;909793466661.481;NL
1153615.0;Copenhagen;Denmark;55.58560180664063;12.131400108337402;RKE;DNK;355222449505.211;DK
13535.0;Biggin Hill;United Kingdom;51.33079910279999;0.0324999988079;BQH;GBR;2704609160088.15;GB
59902.0;Farnborough;United Kingdom;51.2757987976;-0.776332974434;FAB;GBR;2704609160088.15;GB
9033.0;Farnborough;United Kingdom;51.2757987976;-0.776332974434;FAB;GBR;2704609160088.15;GB
102.0;Farnborough;United Kingdom;51.2757987976;-0.776332974434;FAB;GBR;2704609160088.15;GB
2154.0;Farnborough;United Kingdom;51.2757987976;-0.776332974434;FAB;GBR;2704609160088.15;GB
2138551.0;Paris;France;48.96939849853516;2.441390037536621;LBG;FRA;2639008701648.26;FR
202578.0;Çorlu;Turkey;41.13819885253906;27.91909980773925;TEQ;TUR;720289368333.191;TR
2138551.0;Paris;France;49.012798;Feb.55;CDG;FRA;2639008701648.26;FR
427236.0;Bryansk;Russia;53.214199;34.176399;BZK;RUS;1489362488439.76;RU
279190.0;Petrozavodsk;Russia;61.88520050048828;34.15470123291016;PES;RUS;1489362488439.76;RU
290000;Tambow;Russia;52.806098937988;41.482799530029;TBW;RUS;1489362488439.76;RU
448733.0;Kursk;Russia;51.7505989074707;36.29560089111328;URS;RUS;1489362488439.76;RU
2000;Grímsey;Iceland;66.5458;-18.0173;GRY;ISL;21694674809.9321;IS
2000;Vopnafjörður;Iceland;65.72059631347656;-14.850600242614744;VPN;ISL;21694674809.9321;IS
107436.0;Bolzano;Italy;46.460201;Nov.64;BZO;ITA;1896755301518.14;IT
74545.0;Cannes;France;43.542;6.95348;CEQ;FRA;2639008701648.26;FR
1702139.0;Warsaw;Poland;52.451099;20.6518;WMI;POL;599449188399.108;PL
244715.0;Braunschweig;Germany;52.319199;Oct.61;BWE;DEU;3889668895299.62;DE
79000;Kortrijk-vevelgem;Belgium;50.817199707;3.2047200202900004;KJK;BEL;525211810652.608;BE
460349.0;Murcia;Spain;37.803;-1.125;RMU;ESP;1276962685648.25;ES
2543.0;Sveg;Sweden;62.04779815673828;14.422900199890137;EVG;SWE;547054174235.876;SE
4869.0;Hagfors;Sweden;60.02009963989258;13.578900337219238;HFS;SWE;547054174235.876;SE
4419.0;Torsby;Sweden;60.1576004028;12.991299629199998;TYF;SWE;547054174235.876;SE
2243.0;Karpathos;Greece;35.4213981628418;27.145999908447266;AOK;GRC;188925995936.807;GR
1877155.0;Bucharest;Romania;44.50320053100586;26.10210037231445;BBU;ROU;251362040527.804;RO
126780;Cyclades Islands;Greece;37.0811004639;25.3680992126;JNX;GRC;188925995936.807;GR
6160;Skiathos;Greece;39.17710113525391;23.503700256347656;JSI;GRC;188925995936.807;GR
1330;Astypalaia;Greece;36.5798988342;26.3757991791;JTY;GRC;188925995936.807;GR
13387.0;Kastoria;Greece;40.4463005066;21.2821998596;KSO;GRC;188925995936.807;GR
42600;Kozani;Greece;40.28609848022461;21.84079933166504;KZI;GRC;188925995936.807;GR
7900;Leros;Greece;37.184898;26.800301;LRS;GRC;188925995936.807;GR
12000;Paros;Greece;37.020495;25.113195;PAS;GRC;188925995936.807;GR
6800;Nea Anghialos;Greece;39.21960067749024;22.794300079345703;VOL;GRC;188925995936.807;GR
305689.0;Craiova;Romania;44.31809997558594;23.88859939575196;CRA;ROU;251362040527.804;RO
116310;Tirgu Mures;Romania;46.46770095825195;24.41250038146973;TGM;ROU;251362040527.804;RO
200423.0;Brescia;Italy;45.428902;Oct.06;VBS;ITA;1896755301518.14;IT
147710.0;Dundee;United Kingdom;56.45249938964844;-3.025830030441284;DND;GBR;2704609160088.15;GB
59697;Chambery;France;45.63809967041016;5.880229949951173;CMF;FRA;2639008701648.26;FR
194501.0;Kassel;Germany;51.417273;9.384967;KSF;DEU;3889668895299.62;DE
29300;Sion;Switzerland;46.2196006775;7.326759815220001;SIR;CHE;739913619797.445;CH
217200;Luebeck;Germany;53.805400848400005;10.7192001343;LBC;DEU;3889668895299.62;DE
26000.0;Northolt;United Kingdom;51.5530014038;-0.418166995049;NHT;GBR;2704609160088.15;GB
34500;Skovde;Sweden;58.45640182495117;13.972700119018556;KVB;SWE;547054174235.876;SE
83491.0;Pori;Finland;61.46170043945301;21.799999237061;POR;FIN;271891788362.647;FI
2700.0;Samedan;Switzerland;46.53409957885742;9.884110450744627;SMV;CHE;739913619797.445;CH
1000;Værøy;Norway;67.654555;12.727257;VRY;NOR;362198318435.26;NO
120658.0;Ingolstadt;Germany;48.7156982421875;11.534000396728516;IGS;DEU;3889668895299.62;DE
13758;Siegerland;Germany;50.70769882202149;8.082969665527344;SGE;DEU;3889668895299.62;DE
198292.0;Parma;Italy;44.824501;Oct.64;PMF;ITA;1896755301518.14;IT
1800;Enontekio;Finland;68.36260223388699;23.424299240112;ENF;FIN;271891788362.647;FI
887500;Eskissehir;Turkey;39.809898;30.5194;AOE;TUR;720289368333.191;TR
42033.0;Ohrid;Macedonia;41.18;20.7423;OHD;MKD;12363580534.6811;MK
169065.0;Arad;Romania;46.17660140991211;21.261999130249023;ARW;ROU;251362040527.804;RO
76000;Beziers;France;43.32350158691406;3.353899955749512;BZR;FRA;2639008701648.26;FR
31320.0;Grottaglie;Italy;40.517502;17.4032;TAR;ITA;1896755301518.14;IT
22620;Portimao;Portugal;37.1493;-8.583960000000001;PRM;PRT;229031860520.777;PT
45300;Chalons;France;48.7733333333;4.206111111;XCR;FRA;2639008701648.26;FR
3255944.0;Madrid;Spain;40.49670028686523;-3.4458699226379395;TOJ;ESP;1276962685648.25;ES
50715.0;Gelendzhik;Russia;44.5820926295;38.0124807358;GDZ;RUS;1489362488439.76;RU
121631.0;Bern;Switzerland;46.914100647;7.4971499443099985;BRN;CHE;739913619797.445;CH
346893.0;Plovdiv;Bulgaria;42.067799;24.8508;PDV;BGR;70240275010.1964;BG
522969.0;Lyon;France;45.72719955444336;4.944270133972168;LYN;FRA;2639008701648.26;FR
34209;Zweibruecken;Germany;49.2094;7.40056;ZQW;DEU;3889668895299.62;DE
100229.0;Zonguldak;Turkey;41.506401062;32.0886001587;ONQ;TUR;720289368333.191;TR
259196.0;Augsburg;Germany;48.425278000000006;10.931667;AGB;DEU;3889668895299.62;DE
281205;Bingol;Turkey;38.8592605591;40.5959625244;BGG;TUR;720289368333.191;TR
540622;Canakkale;Turkey;40.1376991272;26.4267997742;CKZ;TUR;720289368333.191;TR
1200000;Balikesir Korfez;Turkey;39.554599762;27.0137996674;EDO;TUR;720289368333.191;TR
114034.0;Siirt;Turkey;37.97890090942383;41.84040069580078;SXZ;TUR;720289368333.191;TR
2140;Alderney;Guernsey;49.706104;-2.21472;ACI;GGY;3465000000;GG
53580;La Roche-sur-yon;France;46.70190048217773;-1.3786300420761108;EDM;FRA;2639008701648.26;FR
12602.0;Mora;Sweden;60.957901;14.5114;MXX;SWE;547054174235.876;SE
10381222.0;Moscow;Russia;55.511667;37.507222;OSF;RUS;1489362488439.76;RU
171380.0;Oxford;United Kingdom;51.8368988037;-1.32000005245;OXF;GBR;2704609160088.15;GB
88520.0;Pardubice;Czech Republic;50.01340103149414;15.73859977722168;PED;CZE;245974558654.043;CZ
21090;Villacoublay;France;48.7741667;2.1916667000000003;VIY;FRA;2639008701648.26;FR
8185.0;Essen;Germany;51.40230178833008;6.9373297691345215;ESS;DEU;3889668895299.62;DE
593085.0;Essen;Germany;51.40230178833008;6.9373297691345215;ESS;DEU;3889668895299.62;DE
27353.0;Savonlinna;Finland;61.943099975586;28.945100784302;SVL;FIN;271891788362.647;FI
127800;Vasteras;Sweden;59.58940124511719;16.633600234985348;VST;SWE;547054174235.876;SE
54100.0;Kalamata;Greece;37.06829833984375;22.02549934387207;KLX;GRC;188925995936.807;GR
486270;Nikolayev;Ukraine;47.057899475097656;31.9197998046875;NLV;UKR;156617861448.576;UA
;Blackbushe;United Kingdom;51.32389831542969;-0.8475000262260437;BBS;GBR;2704609160088.15;GB
317830;Constanta;Romania;44.36220169067383;28.488300323486328;CND;ROU;251362040527.804;RO
577941;Kutahya;Turkey;39.113079;30.128111;KZR;TUR;720289368333.191;TR
64754.0;Nakhchivan;Azerbaijan;39.18880081176758;45.45840072631836;NAJ;AZE;42693000000.0;AZ
28334.0;Geilenkirchen;Germany;50.9608;6.04242;GKE;DEU;3889668895299.62;DE
268272.0;Yoshkar-Ola;Russia;56.70059967041016;47.90470123291016;JOK;RUS;1489362488439.76;RU
277280.0;Kostroma;Russia;57.7969017029;41.0194015503;KMW;RUS;1489362488439.76;RU
312420.0;Vologda;Russia;59.28250122070313;39.94440078735352;VGD;RUS;1489362488439.76;RU
3010000;Kiev;Ukraine;50.60350036621094;30.1919002532959;GML;UKR;156617861448.576;UA
105058.0;Nancy;France;48.69210052490234;6.230460166931152;ENC;FRA;2639008701648.26;FR
117950;Forli;Italy;44.194801;12.0701;FRL;ITA;1896755301518.14;IT
60922.0;Grosseto;Italy;42.759701;11.0719;GRS;ITA;1896755301518.14;IT
170244;Castellón de la Plana;Spain;40.213889;0.073333;CDT;ESP;1276962685648.25;ES
117700;Zielona Gora;Poland;52.1385002136;15.7986001968;IEG;POL;599449188399.108;PL
17516.0;Morlaix;France;48.6031990051;-3.81577992439;MXN;FRA;2639008701648.26;FR
74014.0;Ciudad Real;Spain;38.8563888889;-3.97;CQM;ESP;1276962685648.25;ES
12300;Seo De Urgel;Spain;42.3386;1.40917;LEU;ESP;1276962685648.25;ES
150800;Logroño-Agoncillo;Spain;42.4609534888;-2.32223510742;RJL;ESP;1276962685648.25;ES
22400;Eday;United Kingdom;59.19060134887695;-2.7722198963165283;EOI;GBR;2704609160088.15;GB
4369.0;Lakenheath;United Kingdom;52.4093017578;0.5609999895100001;LKZ;GBR;2704609160088.15;GB
59078.0;Pula;Croatia;44.89350128173828;13.922200202941896;PUY;HRV;57472012426.6853;HR
246601.0;Kiel;Germany;54.37944412231445;10.145277976989746;KEL;DEU;3889668895299.62;DE
136553.0;Baia Mare;Romania;47.65840148925781;23.46999931335449;BAY;ROU;251362040527.804;RO
62700;Piestany;Slovakia;48.62519836425781;17.828399658203125;PZY;SVK;106696828625.55;SK
137856.0;Lleida;Spain;41.728185;0.5350229999999999;ILD;ESP;1276962685648.25;ES
10588.0;Albert;France;49.9715003967;2.69765996933;BYF;FRA;2639008701648.26;FR
700;Kastelorizo;Greece;36.1417007446;29.5764007568;KZS;GRC;188925995936.807;GR
147707.0;Salamanca;Spain;40.95209884643555;-5.501989841461182;SLM;ESP;1276962685648.25;ES
155619.0;Salamanca;Spain;40.95209884643555;-5.501989841461182;SLM;ESP;1276962685648.25;ES
1800;Hofn;Iceland;64.295601;-15.2272;HFN;ISL;21694674809.9321;IS
2300;Husavik;Iceland;65.952301;-17.426001;HZK;ISL;21694674809.9321;IS
4219.0;Vestmannaeyjar;Iceland;63.42430114746094;-20.27890014648437;VEY;ISL;21694674809.9321;IS
24114.0;Schleswig;Germany;54.459301;9.51633;WBG;DEU;3889668895299.62;DE
4000;Sigonella;Italy;37.401699;14.9224;NSY;ITA;1896755301518.14;IT
19100;Ramstein;Germany;49.4369010925293;7.600279808044434;RMS;DEU;3889668895299.62;DE
240300.0;Lankaran;Azerbaijan;38.7463989258;48.818000793500005;LLK;AZE;42693000000.0;AZ
377000;St-Etienne;France;45.54059982299805;4.2963900566101065;EBU;FRA;2639008701648.26;FR
148688.0;Rimini;Italy;44.020302;Dec.17;RMI;ITA;1896755301518.14;IT
3000;Kardla;Estonia;58.99079895019531;22.830699920654297;KDL;EST;31370395572.7658;EE
12698.0;Kuressaare;Estonia;58.22990036010742;22.50950050354004;URE;EST;31370395572.7658;EE
34367.0;Agen;France;44.17470169067383;0.5905560255050659;AGF;FRA;2639008701648.26;FR
288230;Orleans;France;47.9878005981;1.7605600357100002;ORE;FRA;2639008701648.26;FR
34680;Braganca;Portugal;41.8578;-6.70713;BGC;PRT;229031860520.777;PT